,City,Cloudiness,Country,Date,Humidity,Latitude,Longitude,Max Temp,Wind Speed
0,Mar del Plata,8,AR,1551478343,48,-46.43,-67.52,69.69,4.74
1,Tuktoyaktuk,5,CA,1551474000,64,69.44,-133.03,-4.01,18.34
2,Conceicao das Alagoas,40,BR,1551474000,94,-19.91,-48.39,69.8,6.93
3,Mataura,92,NZ,1551478204,74,-46.19,168.86,59.0,8.99
4,Butaritari,56,KI,1551478641,100,3.07,172.79,82.65,16.49
5,Marystown,12,CA,1551478344,100,47.17,-55.16,25.0,11.01
6,Cape Town,0,ZA,1551478512,82,-33.93,18.42,68.0,4.7
7,Tautira,20,PF,1551478989,74,-17.73,-149.15,87.01,4.7
8,Provideniya,20,RU,1551478805,100,64.42,-173.23,21.72,9.1
9,Chapais,20,CA,1551477600,67,49.78,-74.86,19.4,10.29
10,Bambous Virieux,40,MU,1551478739,88,-20.34,57.76,80.6,8.05
11,Jamestown,0,AU,1551478652,39,-33.21,138.6,70.41,9.66
12,Tiksi,48,RU,1551478814,56,71.64,128.87,-11.58,2.95
13,Busselton,68,AU,1551478528,53,-33.64,115.35,52.0,7.43
14,Troitskoye,92,RU,1551479086,93,52.98,84.68,23.03,3.74
15,Puerto Ayora,20,EC,1551477600,62,-0.74,-90.35,87.8,8.05
16,Gayeri,24,BF,1551479088,26,12.65,0.49,70.68,6.42
17,Kodiak,90,US,1551479008,100,39.95,-94.76,37.0,3.36
18,Camden,90,US,1551479091,83,39.94,-75.12,35.01,5.82
19,Victoria Point,75,AU,1551479092,88,-27.58,153.3,71.01,8.05
20,Chokurdakh,20,RU,1551478968,46,70.62,147.9,-28.68,2.95
21,Key Largo,1,US,1551479061,61,25.09,-80.45,80.6,6.93
22,Hobart,0,AU,1551477668,34,-42.88,147.33,78.8,11.41
23,Rodrigues Alves,40,BR,1551477600,78,-7.74,-72.65,82.4,2.24
24,Rawson,0,AR,1551479099,52,-43.3,-65.11,67.17,11.9
25,Vestmannaeyjar,92,IS,1551479106,100,63.44,-20.27,40.26,8.77
26,Nuuk,20,GL,1551478968,37,64.17,-51.74,37.4,25.28
27,Tuatapere,12,NZ,1551478204,74,-46.13,167.69,59.0,8.99
28,Atuona,0,PF,1551478616,100,-9.8,-139.03,80.36,8.21
29,Narsaq,75,GL,1551477000,32,60.91,-46.05,39.2,14.99
30,Faanui,88,PF,1551478799,100,-16.48,-151.75,82.25,8.77
31,Hermanus,0,ZA,1551478575,93,-34.42,19.24,64.99,2.62
32,Codrington,75,AU,1551478740,94,-28.95,153.24,69.8,6.93
33,Maceio,20,BR,1551477600,74,-9.67,-35.74,80.6,8.05
34,Broome,76,GB,1551478714,87,52.47,1.45,46.99,8.05
35,Acoua,40,YT,1551477600,83,-12.72,45.06,82.4,9.17
36,Kitimat,75,CA,1551477600,51,54.02,-128.69,39.2,2.24
37,Kaitangata,32,NZ,1551478800,84,-46.28,169.85,53.45,10.78
38,Klaksvik,80,FO,1551477000,100,62.23,-6.59,44.6,10.29
39,Lashio,0,MM,1551479121,90,22.93,97.75,53.13,1.83
40,Berlevag,0,NO,1551477000,85,70.86,29.09,15.8,13.87
41,Jalu,20,LY,1551478845,58,29.03,21.55,51.06,4.52
42,Fairbanks,1,US,1551478807,78,64.84,-147.72,34.0,2.17
43,East London,92,ZA,1551478793,100,-33.02,27.91,71.63,2.28
44,North Bend,40,US,1551478598,81,43.41,-124.22,46.99,11.41
45,Punta Arenas,75,CL,1551477797,87,-53.16,-70.91,57.2,8.05
46,Brandon,90,US,1551479104,78,43.59,-96.57,19.4,8.05
47,Albany,1,US,1551478467,50,42.65,-73.75,37.4,5.82
48,Necochea,68,AR,1551478873,67,-38.55,-58.74,66.0,8.99
49,Rikitea,44,PF,1551478604,100,-23.12,-134.97,77.16,13.8
50,Kirakira,0,SB,1551479124,100,-10.46,161.92,82.02,4.74
51,Nikolskoye,0,RU,1551478508,73,59.7,30.79,19.4,6.71
52,Pangnirtung,75,CA,1551474000,76,66.15,-65.72,-7.61,13.87
53,Cherskiy,68,RU,1551478883,72,68.75,161.3,-6.63,6.98
54,Sisimiut,44,GL,1551478632,83,66.94,-53.67,10.02,1.16
55,Te Anau,0,NZ,1551479061,77,-45.41,167.72,48.81,0.94
56,Ushuaia,75,AR,1551477600,66,-54.81,-68.31,53.6,4.7
57,Dingle,0,PH,1551478896,89,11.0,122.67,71.22,11.79
58,Yellowknife,40,CA,1551477775,48,62.45,-114.38,-7.01,6.93
59,Port Alfred,24,ZA,1551478599,85,-33.59,26.89,68.0,1.99
60,Kavaratti,8,IN,1551478643,100,10.57,72.64,82.2,6.42
61,Oriximina,24,BR,1551479126,74,-1.77,-55.87,84.68,2.73
62,Havre-Saint-Pierre,20,CA,1551477600,57,50.23,-63.6,21.2,18.34
63,Dikson,24,RU,1551478617,76,73.51,80.55,-4.02,23.76
64,Hilo,90,US,1551478570,46,19.71,-155.08,73.4,8.05
65,Dunedin,0,NZ,1551478558,67,-45.87,170.5,60.01,8.99
66,Hue,20,VN,1551477600,100,16.47,107.58,71.6,2.24
67,Ossora,56,RU,1551479129,89,59.24,163.07,-10.95,2.28
68,Sept-Iles,20,CA,1551478703,41,50.2,-66.38,21.2,16.11
69,Vaini,0,IN,1551478724,73,15.34,74.49,57.36,2.39
70,Saint-Philippe,1,CA,1551478591,53,45.36,-73.48,27.0,3.74
71,Mahebourg,40,MU,1551478739,88,-20.41,57.7,80.6,8.05
72,Cidreira,24,BR,1551478636,65,-30.17,-50.22,78.33,11.45
73,Thompson,90,CA,1551474000,58,55.74,-97.86,-4.01,6.93
74,Bluff,8,AU,1551478749,69,-23.58,149.07,71.49,12.12
75,Saldanha,76,PT,1551478882,64,41.42,-6.55,51.42,6.53
76,Lebu,20,ET,1551474000,45,8.96,38.73,64.4,4.7
77,Qaanaaq,0,GL,1551478575,90,77.48,-69.36,-15.95,4.74
78,Fukue,75,JP,1551479048,65,35.03,136.69,48.0,19.46
79,Victoria,75,BN,1551477600,94,5.28,115.24,77.0,1.61
80,Itoman,75,JP,1551477360,93,26.12,127.67,68.0,3.18
81,Gat,0,SN,1551477600,12,14.69,-16.54,77.0,9.17
82,Longyearbyen,75,NO,1551477000,77,78.22,15.63,3.2,5.82
83,Waipawa,80,NZ,1551477916,71,-39.94,176.59,57.99,1.99
84,Pevek,48,RU,1551479039,90,69.7,170.27,-4.29,4.97
85,Ballinasloe,68,IE,1551479133,94,53.33,-8.22,46.16,6.64
86,Iqaluit,40,CA,1551477772,70,63.75,-68.52,-5.01,26.4
87,Yumen,0,CN,1551479133,63,40.29,97.04,19.43,8.99
88,Khani,90,GE,1551477600,100,41.96,42.96,33.8,5.82
89,Hithadhoo,80,MV,1551478530,100,-0.6,73.08,82.92,8.21
90,Erdenet,8,MN,1551479134,70,49.03,104.04,17.63,7.43
91,Bathsheba,20,BB,1551477600,69,13.22,-59.52,78.8,21.92
92,Vila Velha,20,BR,1551478688,78,-3.71,-38.6,82.4,4.7
93,Khatanga,20,RU,1551478675,49,71.98,102.47,-17.21,3.74
94,Kapaa,40,US,1551478594,44,22.08,-159.32,75.2,14.99
95,Darnah,76,LY,1551479134,100,32.77,22.64,59.61,18.72
96,Lompoc,90,US,1551478880,67,34.64,-120.46,61.0,4.7
97,Fershampenuaz,92,RU,1551479210,90,53.52,59.82,25.77,15.26
98,Gornyy,92,RU,1551479211,97,51.76,48.54,33.33,11.23
99,Terrace Bay,90,CA,1551477600,52,48.78,-87.1,17.6,2.24
100,Avarua,68,CK,1551477600,83,-21.21,-159.78,84.2,9.17
101,Zlobin,20,HR,1551479085,76,45.29,14.65,50.0,5.82
102,Ambilobe,32,MG,1551479219,80,-13.19,49.05,77.61,10.45
103,Nancha,32,CN,1551479219,54,47.14,129.26,5.79,2.17
104,Barra do Garcas,40,BR,1551474000,83,-15.89,-52.26,78.8,6.2
105,College,1,US,1551478807,78,64.86,-147.8,34.0,2.17
106,Kampene,0,CD,1551479223,92,-3.59,26.67,71.67,2.17
107,Plettenberg Bay,0,ZA,1551479224,99,-34.05,23.37,64.61,3.62
108,Krian,24,ID,1551479226,100,-7.41,112.58,77.16,4.07
109,Georgetown,40,GY,1551477600,74,6.8,-58.16,82.4,6.93
110,Haines Junction,68,CA,1551479133,84,60.75,-137.51,14.25,2.62
111,Umm Lajj,0,SA,1551479229,100,25.02,37.27,57.68,10.0
112,Nome,1,US,1551478724,68,30.04,-94.42,71.6,4.7
113,Itarema,76,BR,1551479063,83,-2.92,-39.92,80.4,6.64
114,Sao Filipe,0,CV,1551478742,80,14.9,-24.5,74.51,17.83
115,Coquimbo,0,CL,1551477600,72,-29.95,-71.34,64.4,10.29
116,Nanortalik,48,GL,1551478907,95,60.14,-45.24,31.17,20.74
117,Wloszczowa,0,PL,1551479229,1,50.85,19.97,33.01,7.65
118,Kotido,0,UG,1551479234,47,3.01,34.12,70.55,6.2
119,Gandajika,64,CD,1551479237,93,-6.75,23.95,73.61,3.06
120,Nemuro,0,JP,1551479008,100,43.32,145.57,29.55,20.74
121,Margate,0,AU,1551478560,34,-43.03,147.26,78.8,11.41
122,Aswan,20,EG,1551479005,57,24.09,32.9,50.61,7.87
123,San Angelo,1,US,1551479111,32,31.46,-100.44,80.6,5.82
124,Batagay,56,RU,1551479240,50,67.65,134.64,-30.93,2.51
125,Bethel,90,US,1551477360,86,60.79,-161.76,37.4,18.34
126,Puntarenas,40,CR,1551477600,61,9.98,-84.84,77.0,11.41
127,Izumo,20,JP,1551475800,100,35.37,132.75,35.6,8.05
128,San Patricio,0,PY,1551478756,58,-26.98,-56.83,82.61,2.39
129,Makakilo City,90,US,1551478653,64,21.35,-158.09,75.2,9.17
130,Acapulco,5,MX,1551476520,70,16.86,-99.88,84.2,9.17
131,Torbay,40,CA,1551478614,62,47.66,-52.73,21.99,29.97
132,Bubaque,0,GW,1551479248,78,11.28,-15.83,82.47,12.24
133,Kruisfontein,24,ZA,1551478865,90,-34.0,24.73,62.49,5.97
134,Weyburn,44,CA,1551479113,81,49.67,-103.85,5.0,21.99
135,Anadyr,40,RU,1551478994,92,64.73,177.51,23.0,26.84
136,Chuy,0,UY,1551478760,51,-33.69,-53.46,82.92,9.55
137,Upernavik,36,GL,1551478882,100,72.79,-56.15,1.83,9.66
138,Luderitz,0,NA,1551479252,71,-26.65,15.16,65.15,18.28
139,Dzilam Gonzalez,44,MX,1551479254,81,21.28,-88.93,77.61,5.97
140,Cabra,0,ES,1551479215,71,37.47,-4.43,54.0,4.7
141,Tasiilaq,68,GL,1551477000,67,65.61,-37.64,21.2,43.62
142,Caohai,0,CN,1551479258,44,26.87,104.28,46.2,10.0
143,Placido de Castro,48,BR,1551479259,89,-10.34,-67.19,76.62,4.18
144,San Quintin,56,PH,1551479260,90,17.54,120.52,65.1,2.95
145,Quesnel,44,CA,1551478832,33,52.98,-122.49,18.0,3.0
146,Hualmay,68,PE,1551478949,66,-11.1,-77.61,76.89,5.64
147,Katsuura,0,JP,1551475200,80,33.93,134.5,42.8,2.24
148,Arraial do Cabo,75,BR,1551474000,83,-22.97,-42.02,80.6,2.24
149,Castro,90,CL,1551477600,67,-42.48,-73.76,60.8,12.75
150,Guilin,90,CN,1551477600,93,25.28,110.29,48.2,2.24
151,Port Lincoln,8,AU,1551479101,89,-34.72,135.86,68.75,7.09
152,Konotop,88,UA,1551479263,86,51.24,33.21,24.78,15.48
153,Xilopolis,0,GR,1551479119,61,40.93,23.18,54.0,6.93
154,Binzhou,48,CN,1551478163,48,37.38,117.96,43.0,3.51
155,Maple Creek,80,CA,1551479135,83,49.91,-109.46,1.02,10.78
156,Amapa,20,HN,1551478634,55,15.09,-87.97,87.01,20.8
157,Vanimo,92,PG,1551479265,100,-2.67,141.3,82.11,9.22
158,Mahanoro,92,MG,1551479268,100,-19.9,48.8,74.46,2.06
159,Severo-Kurilsk,36,RU,1551478868,100,50.68,156.12,15.83,7.2
160,Salalah,75,OM,1551477000,78,17.01,54.1,77.0,2.24
161,Airai,64,TL,1551479270,91,-8.93,125.41,70.32,0.72
162,Mount Isa,0,AU,1551477600,44,-20.73,139.49,80.6,8.05
163,Lorengau,68,PG,1551478727,99,-2.02,147.27,82.65,6.53
164,Deputatskiy,64,RU,1551478799,38,69.3,139.9,-26.52,2.73
165,Gazimurskiy Zavod,0,RU,1551479280,65,51.55,118.33,6.24,2.62
166,Yekaterinoslavka,24,RU,1551479281,63,54.34,72.46,3.36,3.18
167,Sibolga,88,ID,1551479023,100,1.74,98.78,67.98,0.94
168,La Rioja,12,AR,1551479281,42,-29.41,-66.86,88.23,3.4
169,Magan,40,RU,1551475800,75,62.1,129.53,-20.21,2.24
170,Hofn,92,IS,1551479011,100,64.25,-15.21,38.46,23.87
171,Port Elizabeth,90,US,1551478748,93,39.31,-74.98,39.0,10.29
172,Sayyan,0,YE,1551479282,87,15.17,44.32,46.16,1.61
173,Simi,90,US,1551479279,62,38.64,-122.87,57.99,4.07
174,Kangaba,0,ML,1551479284,32,11.94,-8.41,66.41,8.55
175,Talnakh,76,RU,1551479138,85,69.49,88.39,8.31,17.05
176,Paracatu,44,BR,1551478990,69,-17.22,-46.87,81.39,3.4
177,Liverpool,40,GB,1551479266,81,53.41,-2.98,48.0,10.29
178,Vostok,0,RU,1551479286,68,46.45,135.83,8.45,3.18
179,Parana,40,BR,1551477600,78,-7.52,-72.89,82.4,2.24
180,Quatre Cocos,40,MU,1551479039,88,-20.21,57.76,80.6,8.05
181,Thaba Nchu,0,ZA,1551477600,55,-29.2,26.83,60.8,2.84
182,Fortuna,0,ES,1551478775,93,38.18,-1.13,57.0,4.7
183,Torbat-e Jam,92,IR,1551479294,90,35.24,60.63,36.03,1.95
184,Bintulu,56,MY,1551479283,89,3.17,113.03,76.89,3.74
185,Chaman,92,AF,1551479298,92,30.92,66.46,43.86,19.28
186,Dharchula,32,IN,1551479299,63,29.85,80.53,27.71,2.39
187,Nelson Bay,56,AU,1551478844,64,-32.72,152.14,75.2,5.82
188,Brooks,64,CA,1551478533,66,50.57,-111.89,-5.01,8.99
189,Goulburn,76,AU,1551479120,77,-34.75,149.72,69.01,2.95
190,Cuiluan,24,CN,1551479317,70,47.72,128.65,5.79,2.62
191,Mildura,0,AU,1551478576,31,-34.18,142.16,82.0,4.7
192,New Norfolk,0,AU,1551478560,34,-42.78,147.06,78.8,11.41
193,Hobyo,92,SO,1551479028,92,5.35,48.53,76.26,8.43
194,Coburg,92,DE,1551479225,96,50.26,10.96,45.0,5.64
195,Savinskiy,36,RU,1551479320,87,62.93,40.14,15.65,6.42
196,Reshetylivka,80,UA,1551479321,94,49.56,34.08,27.93,13.91
197,Caraquet,1,CA,1551478855,38,47.79,-64.94,26.6,11.41
198,Fez,20,MA,1551477600,87,34.03,-5.02,51.8,6.93
199,Longonjo,64,AO,1551479331,96,-12.91,15.25,60.42,2.51
200,Abu Kamal,0,SY,1551479331,85,34.45,40.92,37.16,8.77
201,Tilichiki,12,RU,1551479332,45,60.47,166.1,-15.9,4.18
202,Souillac,90,FR,1551479246,87,45.6,-0.6,48.2,3.36
203,Cayenne,100,GF,1551477600,74,4.94,-52.33,78.8,6.93
204,Timbuktu,0,ML,1551479332,30,16.77,-3.01,62.49,9.78
205,Jacareacanga,20,BR,1551474000,66,-6.22,-57.76,86.0,3.36
206,San Jeronimo,80,PE,1551479333,76,-13.65,-73.37,53.4,2.39
207,Sola,0,NO,1551479179,100,58.89,5.65,33.01,6.93
208,Aksu,75,KZ,1551477600,84,52.04,76.93,8.6,2.24
209,Russell,0,AR,1551477600,29,-33.01,-68.8,89.6,6.93
210,Simao,0,CN,1551479334,83,22.76,100.79,49.53,2.28
211,Tocopilla,0,CL,1551479334,71,-22.09,-70.2,71.45,6.64
212,Kamaishi,0,JP,1551479336,66,39.28,141.86,32.61,7.65
213,Fort Nelson,5,CA,1551477600,45,58.81,-122.69,1.4,2.24
214,Tessalit,0,ML,1551478796,35,20.2,1.01,57.95,9.66
215,Entebbe,20,UG,1551477600,83,0.06,32.45,73.4,4.7
216,Vorukh,56,KG,1551479341,81,39.85,70.57,15.65,1.72
217,Katherine,0,AU,1551477600,78,-14.47,132.26,77.0,3.36
218,Santa Cruz,40,US,1551479329,71,36.97,-122.03,59.0,4.7
219,Gornyak,92,KZ,1551479347,86,51.0,81.46,25.55,2.95
220,Constitucion,5,MX,1551478815,10,23.99,-104.67,80.6,11.41
221,Gigmoto,68,PH,1551479348,100,13.78,124.39,74.01,9.89
222,Ostrovnoy,68,RU,1551479348,91,68.05,39.51,15.65,10.78
223,Reconquista,0,AR,1551479234,37,-29.14,-59.64,88.41,7.65
224,Moissala,48,TD,1551479349,64,8.34,17.77,81.98,2.95
225,Naryan-Mar,0,RU,1551479353,81,67.67,53.09,7.5,15.03
226,Yar-Sale,36,RU,1551479026,74,66.83,70.83,-3.53,3.29
227,Byadgi,0,IN,1551479357,58,14.68,75.48,62.94,2.73
228,Bredasdorp,12,ZA,1551478575,77,-34.53,20.04,60.8,3.36
229,Kahului,40,US,1551478594,47,20.89,-156.47,75.99,10.29
230,Murgab,90,TM,1551477600,81,37.5,61.97,48.2,9.17
231,Latung,12,ID,1551479362,90,-8.45,120.42,72.71,3.06
232,Baie-Comeau,90,CA,1551479340,68,49.22,-68.15,24.8,17.22
233,Bantou,80,CN,1551479364,96,26.22,117.49,53.13,2.06
234,Shouguang,24,CN,1551478163,48,36.88,118.73,43.0,2.62
235,Eydhafushi,0,MV,1551479365,100,5.1,73.07,81.66,6.98
236,Vao,0,EE,1551479365,83,59.1,26.19,14.16,5.75
237,Sitka,0,US,1551478566,49,37.17,-99.65,50.0,1.99
238,Kayseri,75,TR,1551477000,59,38.73,35.48,37.4,5.3
239,Nikolayevsk-na-amure,0,RU,1551479366,68,53.14,140.72,1.83,7.09
240,Barinas,0,VE,1551479366,46,8.64,-70.23,92.55,9.33
241,Knysna,8,ZA,1551477660,93,-34.04,23.05,64.4,3.36
242,Southbridge,1,US,1551479363,49,42.08,-72.03,36.0,9.17
243,Sioux Lookout,75,CA,1551477600,51,50.1,-91.92,12.2,6.93
244,Japura,64,ID,1551479368,97,-0.42,102.29,73.47,1.95
245,Nortelandia,8,BR,1551479369,76,-14.45,-56.8,83.15,5.75
246,Grindavik,90,IS,1551477600,100,63.84,-22.43,37.4,9.17
247,Carnarvon,0,ZA,1551479369,37,-30.97,22.13,63.48,7.65
248,Dawei,12,MM,1551479371,86,14.07,98.19,72.71,1.72
249,Leon,90,US,1551478609,96,40.74,-93.75,33.8,8.05
250,Plyussa,0,RU,1551479372,82,58.42,29.37,12.86,4.63
251,Pringsewu,92,ID,1551479372,96,-5.36,104.98,72.93,2.28
252,Mackenzie,1,CA,1551478920,35,55.34,-123.09,6.8,9.17
253,Carutapera,92,BR,1551479373,94,-1.2,-46.02,78.24,3.62
254,Tadine,88,NC,1551479377,97,-21.55,167.88,78.96,25.88
255,Norman Wells,5,CA,1551474000,59,65.28,-126.83,-0.41,23.04
256,Muros,90,ES,1551479373,100,42.77,-9.06,57.99,5.82
257,Maningrida,20,AU,1551478908,89,-12.05,134.23,79.68,9.66
258,Thunder Bay,90,CA,1551479151,52,48.41,-89.26,21.0,8.05
259,Ulety,0,RU,1551479380,53,51.36,112.48,4.8,2.62
260,Taoudenni,0,ML,1551479099,27,22.68,-3.98,57.5,9.22
261,Salaga,68,GH,1551479380,37,8.55,-0.52,83.15,7.76
262,Sanchursk,76,RU,1551479381,89,56.94,47.25,19.88,9.44
263,The Valley,20,AI,1551478533,69,18.22,-63.06,78.8,14.99
264,Ribeira Grande,40,PT,1551475800,87,38.52,-28.7,60.8,10.29
265,Ponta do Sol,100,BR,1551478801,87,-20.63,-46.0,72.8,2.62
266,Pontianak,80,ID,1551479385,100,-0.02,109.34,76.4,5.75
267,Dirba,0,NG,1551479386,44,10.1,13.23,73.02,4.18
268,Vanavara,92,RU,1551479387,90,60.35,102.28,18.3,2.73
269,Florianopolis,20,BR,1551479286,78,-27.6,-48.55,78.01,4.7
270,Kandrian,36,PG,1551479389,95,-6.21,149.55,76.89,3.06
271,Cape Coast,24,GH,1551479391,85,5.11,-1.24,78.24,5.64
272,Aksarka,12,RU,1551479392,59,66.56,67.8,-12.98,3.29
273,Kardamaina,40,GR,1551477000,76,36.78,27.14,53.6,1.12
274,Kitaibaraki,20,JP,1551478856,51,36.84,140.74,37.4,12.75
275,Neiafu,20,TO,1551477600,79,-18.65,-173.98,84.2,5.82
276,Rundu,48,NA,1551479394,67,-17.91,19.77,74.37,4.18
277,Moranbah,92,AU,1551479394,96,-22.0,148.04,67.17,7.2
278,Yining,92,CN,1551479394,98,29.04,114.56,45.93,2.17
279,Visnes,8,NO,1551479236,86,59.36,5.22,37.99,9.17
280,Ilulissat,20,GL,1551477000,73,69.22,-51.1,26.6,12.75
281,Belaya Gora,8,RU,1551479397,58,68.54,146.19,-33.05,3.06
282,Voineasa,75,RO,1551479116,65,45.42,23.96,46.4,13.87
283,Shieli,0,KZ,1551479398,86,44.18,66.74,34.68,4.52
284,Alabaster,90,US,1551479382,82,33.24,-86.82,64.0,10.29
285,Douentza,0,ML,1551479398,33,15.01,-2.95,58.71,6.42
286,Rabo de Peixe,40,PT,1551479353,87,37.8,-25.58,60.8,13.87
287,Khandbari,0,NP,1551479402,58,27.38,87.21,20.23,1.68
288,Yerbogachen,64,RU,1551479404,81,61.28,108.01,9.07,4.7
289,Belz,75,UA,1551477600,70,50.38,24.01,32.0,13.42
290,Monrovia,20,LR,1551477600,88,6.33,-10.8,78.8,4.81
291,Wagga Wagga,0,AU,1551479406,53,-35.12,147.37,75.99,17.22
292,Coihaique,40,CL,1551477600,55,-45.58,-72.07,62.6,6.93
293,Macklin,24,CA,1551479418,77,52.34,-109.94,-5.2,11.86
294,Grants,1,US,1551477300,19,35.15,-107.85,59.0,11.41
295,Yeppoon,92,AU,1551477600,65,-23.13,150.74,77.0,12.75
296,Barrow,8,AR,1551479426,42,-38.31,-60.23,67.7,17.56
297,Merauke,48,ID,1551479428,100,-8.49,140.4,80.62,5.59
298,Brae,92,GB,1551477000,87,60.4,-1.35,44.6,16.11
299,San Juan,40,PR,1551479131,65,18.47,-66.12,80.6,16.11
300,Miri,68,NG,1551479134,58,10.31,9.75,76.62,2.95
301,Meulaboh,44,ID,1551479434,100,4.14,96.13,78.95,5.26
302,Tiarei,20,PF,1551478989,74,-17.53,-149.33,87.01,4.7
303,Rancho Palos Verdes,75,US,1551479426,63,33.75,-118.37,69.01,8.05
304,Tesanj,40,BA,1551477600,70,44.61,17.99,50.0,3.36
305,Labuhan,92,ID,1551479441,91,-2.54,115.51,75.08,0.89
306,Whitianga,0,NZ,1551479410,50,-36.83,175.7,73.99,5.01
307,Skibbereen,20,IE,1551477600,93,51.55,-9.27,48.2,8.05
308,Lipin Bor,64,RU,1551479442,85,60.26,37.97,13.25,5.37
309,Korhogo,8,CI,1551479442,34,9.46,-5.63,67.61,7.49
310,Tangshan,0,CN,1551479443,82,39.63,118.17,34.54,2.8
311,Brigantine,90,US,1551479296,100,39.41,-74.36,39.0,9.17
312,Ekhabi,36,RU,1551479444,89,53.51,142.97,-0.84,3.36
313,Aklavik,5,CA,1551477600,58,68.22,-135.01,1.4,17.22
314,Narrabri,64,AU,1551474000,46,-30.33,149.78,71.6,6.08
315,Sokna,0,NO,1551479439,73,60.24,9.92,28.0,1.9
316,Belmonte,48,PT,1551478516,93,40.36,-7.35,44.01,1.01
317,Esperance,20,TT,1551479408,58,10.24,-61.45,82.4,13.87
318,Bhadrachalam,12,IN,1551479448,92,17.67,80.89,69.82,5.48
319,Urusha,24,RU,1551479448,69,54.05,122.9,8.3,2.57
320,Beverley,76,GB,1551479434,93,53.84,-0.43,46.99,11.41
321,Gornopravdinsk,88,RU,1551479451,86,60.06,69.92,23.11,8.5
322,Harper,1,US,1551479439,77,30.3,-99.24,80.01,11.41
323,Vincennes,90,US,1551479447,94,38.68,-87.53,44.01,2.57
324,Kaeo,8,NZ,1551478205,90,-35.1,173.78,73.99,13.42
325,Susanville,1,US,1551479257,52,40.42,-120.65,46.4,21.92
326,Sobolevo,76,RU,1551479112,78,54.43,31.9,19.25,16.26
327,Grand Gaube,40,MU,1551478739,88,-20.01,57.66,80.6,8.05
328,Port Said,0,EG,1551479466,52,25.34,30.55,41.51,2.68
329,Walvis Bay,20,NA,1551477727,77,-22.95,14.51,66.99,5.82
330,Tarko-Sale,68,RU,1551479357,88,64.92,77.78,12.99,1.99
331,Cairns,75,AU,1551479463,88,-16.92,145.77,75.2,11.41
332,Port Hedland,40,AU,1551478020,94,-20.31,118.58,78.8,21.92
333,Cururupu,92,BR,1551479125,91,-1.82,-44.87,78.56,4.07
334,Rafaela,8,AR,1551479283,40,-31.25,-61.49,84.99,1.99
335,Singkang,75,MY,1551477600,83,2.1,102.8,77.0,5.82
336,Toledo,40,PH,1551477600,78,10.38,123.64,75.2,5.82
337,Beringovskiy,20,RU,1551478916,81,63.05,179.32,24.69,15.48
338,Glens Falls,1,US,1551479489,79,43.31,-73.64,37.4,5.82
339,Tabou,44,CI,1551479490,95,4.42,-7.36,83.63,6.71
340,Port-Gentil,40,GA,1551474000,88,-0.72,8.78,80.6,4.7
341,Mugla,20,BG,1551477600,43,41.62,24.49,51.8,12.75
342,Birao,0,CF,1551479491,35,10.3,22.78,71.89,7.83
343,Muncar,48,ID,1551479491,94,-8.43,114.34,81.11,4.25
344,Kavieng,20,PG,1551479081,100,-2.57,150.8,82.43,5.64
345,Sabzevar,68,IR,1551479492,87,36.21,57.68,33.95,2.57
346,Nueve de Julio,0,AR,1551479492,36,-31.67,-68.39,77.29,3.24
347,Ixtapa,5,MX,1551479106,78,20.71,-105.21,78.01,12.75
348,Adrar,0,DZ,1551477600,30,27.87,-0.29,53.6,8.05
349,Clyde River,20,CA,1551477600,77,70.47,-68.59,3.2,25.28
350,Hirara,20,JP,1551475800,88,24.8,125.28,68.0,5.82
351,Nouakchott,0,MR,1551477600,13,18.08,-15.98,66.2,9.17
352,Aripuana,56,BR,1551479261,76,-9.17,-60.63,82.88,2.73
353,Imbituba,20,BR,1551477600,78,-28.24,-48.67,77.0,4.7
354,Laramie,1,US,1551479393,24,41.31,-105.59,42.8,23.04
355,Nanga Eboko,80,CM,1551479495,56,4.68,12.37,76.84,7.27
356,Tual,80,ID,1551479005,100,-5.67,132.75,81.03,12.8
357,Vila Franca do Campo,40,PT,1551479473,87,37.72,-25.43,60.8,13.87
358,Xifeng,0,CN,1551479496,34,42.73,124.72,36.43,8.28
359,Hamilton,75,BM,1551478722,82,32.3,-64.78,68.0,4.7
360,Okha,36,RU,1551479496,89,53.59,142.95,-0.84,3.36
361,Puerto Baquerizo Moreno,40,EC,1551477600,74,-0.9,-89.6,84.2,6.93
362,Astaneh-ye Ashrafiyeh,0,IR,1551477600,93,37.26,49.94,39.2,4.7
363,Atambua,44,ID,1551478999,100,-9.11,124.89,77.21,3.06
364,Eureka,90,US,1551479497,81,40.8,-124.16,54.0,5.82
365,Cap Malheureux,40,MU,1551479340,88,-19.98,57.61,80.6,8.05
366,Kampot,20,KH,1551477600,65,10.62,104.18,80.6,9.17
367,Lagunas,92,PE,1551479499,100,-5.23,-75.68,72.65,3.02
368,Egvekinot,80,RU,1551479499,90,66.32,-179.17,23.06,12.75
369,Saint George,20,GR,1551477000,70,39.45,22.34,48.2,4.14
370,Medicine Hat,90,CA,1551479445,64,50.04,-110.68,-1.0,17.22
371,Komsomolskiy,64,RU,1551479011,79,67.55,63.78,0.93,11.79
372,Primero de Enero,40,CU,1551477000,65,21.94,-78.43,80.6,11.41
373,Fereydun Kenar,68,IR,1551479503,97,36.69,52.52,40.88,2.24
374,Sibu,75,MY,1551477600,100,2.29,111.83,75.0,3.69
375,Zonguldak,64,TR,1551479505,79,41.25,31.83,46.01,7.72
376,Nioro,0,GM,1551479505,32,13.79,-15.05,65.32,9.84
377,Tazovskiy,76,RU,1551479507,83,67.47,78.7,10.78,12.19
378,Wajima,0,JP,1551479507,77,37.4,136.9,47.41,2.24
379,Hovd,75,NO,1551479402,74,63.83,10.7,39.99,20.8
380,Camapua,12,BR,1551479510,89,-19.53,-54.04,73.28,2.68
381,Tieli,80,CN,1551479510,40,46.98,128.05,27.88,8.84
382,Spermezeu,92,RO,1551477600,80,47.29,24.15,44.6,3.36
383,Marienburg,75,DE,1551479500,75,52.12,9.98,42.01,5.82
384,Caravelas,32,BR,1551478926,99,-17.73,-39.27,84.36,18.16
385,Nouadhibou,0,MR,1551477600,64,20.93,-17.03,68.0,17.22
386,Lima,0,PE,1551478928,58,-12.06,-77.04,82.4,9.17
387,Cassilandia,32,BR,1551479520,90,-19.11,-51.73,73.24,1.34
388,Tsabong,0,BW,1551479521,43,-26.02,22.4,63.11,2.8
389,Lewistown,90,US,1551479122,64,40.39,-90.15,43.0,3.85
390,Erzin,20,TR,1551477000,87,36.95,36.2,50.0,2.24
391,Suntar,64,RU,1551479527,88,62.16,117.65,11.14,3.69
392,Balkanabat,24,TM,1551479527,88,39.51,54.36,32.65,4.14
393,Xining,0,CN,1551479529,75,36.62,101.77,8.03,4.25
394,Aligudarz,12,IR,1551479533,85,33.4,49.69,8.08,3.13
395,San Jose,0,PH,1551479534,84,15.79,120.99,70.99,2.91
396,Zelenyy Bor,56,RU,1551479535,85,61.09,42.06,13.39,6.71
397,Acajutla,56,SV,1551479341,54,13.59,-89.83,85.4,6.42
398,Tacuarembo,20,UY,1551479538,57,-31.73,-55.98,67.66,6.93
399,Truckee,90,US,1551479490,32,39.33,-120.18,55.99,14.99
400,Palembang,40,ID,1551477600,100,-2.99,104.76,75.2,3.36
401,Umm Kaddadah,0,SD,1551479540,16,13.6,26.69,64.96,9.62
402,Dukat,80,RS,1551479498,66,42.44,22.31,42.01,1.9
403,Qixingtai,92,CN,1551479527,93,30.41,111.89,44.01,5.7
404,Khorixas,32,NA,1551479551,65,-20.37,14.96,64.91,3.13
405,Pidhorodne,75,UA,1551477600,74,48.57,35.1,33.8,13.42
406,Rezh,64,RU,1551479554,86,57.37,61.4,26.53,6.26
407,Ahar,0,IR,1551479554,58,38.48,47.07,24.28,5.93
408,Emilio Carranza,8,MX,1551479554,66,19.97,-96.61,78.64,2.68
409,Poum,20,MK,1551479074,79,41.28,20.71,25.55,2.06
410,Sao Gotardo,92,BR,1551478541,41,-19.31,-46.05,75.99,1.95
411,Caranavi,20,BO,1551479556,90,-15.83,-67.57,67.61,1.57
412,Namatanai,0,PG,1551479558,94,-3.66,152.44,84.4,8.72
413,Port Blair,12,IN,1551479560,100,11.67,92.75,81.2,9.73
414,Los Llanos de Aridane,75,ES,1551478599,68,28.66,-17.92,64.4,9.17
415,Beachwood,1,US,1551479546,42,41.46,-81.51,39.99,8.05
416,Novouzensk,88,RU,1551479560,94,50.46,48.14,32.83,14.76
417,San Jose Iturbide,20,MX,1551479469,14,21.0,-100.38,84.2,6.93
418,Ust-Tsilma,64,RU,1551479562,79,65.44,52.15,5.96,6.38
419,Anloga,20,GH,1551477600,83,5.79,0.9,78.8,4.7
420,Cabo San Lucas,5,MX,1551479117,53,22.89,-109.91,84.0,13.87
421,Tecoanapa,5,MX,1551476520,70,16.99,-99.26,84.2,9.17
422,La Asuncion,75,EC,1551474000,43,-1.64,-78.74,69.8,6.93
423,Syracuse,20,US,1551479511,59,43.05,-76.15,36.0,2.24
424,Tura,0,IN,1551479565,73,25.52,90.21,44.71,2.24
425,Chawinda,40,PK,1551477600,76,32.35,74.71,55.4,11.41
426,Shingu,24,JP,1551478894,100,33.72,135.99,46.65,10.67
427,Koslan,8,RU,1551479569,84,63.46,48.9,8.48,2.57
428,Gondanglegi,8,ID,1551479569,97,-7.75,112.01,73.87,3.47
429,Verkhoyansk,36,RU,1551479569,45,67.55,133.39,-29.32,2.68
430,Tougan,0,BF,1551479570,24,13.07,-3.07,61.63,9.4
431,Viet Tri,75,VN,1551477600,100,21.3,105.43,73.4,8.05
432,Kieta,20,PG,1551479574,98,-6.22,155.63,82.06,3.13
433,Ceres,0,AR,1551479402,41,-29.88,-61.95,81.83,8.61
434,Kysyl-Syr,44,RU,1551479574,80,63.9,122.77,-5.02,3.69
435,Akropong,0,GH,1551477600,100,5.97,-0.09,75.2,2.24
436,Saint Anthony,1,US,1551478913,52,43.97,-111.68,35.01,12.75
437,Balabac,36,PH,1551479576,99,7.99,117.06,80.17,13.53
438,Faya,0,SA,1551474000,87,18.39,42.45,59.0,6.93
439,San Pedro,0,AR,1551479581,55,-33.68,-59.66,79.4,12.64
440,Las Vegas,1,US,1551479366,15,36.17,-115.15,73.4,10.29
441,Yinchuan,64,CN,1551479585,72,38.48,106.21,21.08,1.9
442,Sinnamary,92,GF,1551479586,92,5.38,-52.96,79.85,12.19
443,Port Augusta,0,AU,1551479150,22,-32.49,137.76,82.99,8.05
444,Matinha,80,BR,1551479588,99,-3.1,-45.04,74.5,3.13
445,Sao Joao da Barra,75,BR,1551477600,83,-21.64,-41.05,78.8,24.05
446,Ozuluama,36,MX,1551479590,63,21.12,-98.35,79.45,3.58
447,Batavia,1,US,1551479590,79,43.0,-78.19,35.01,6.93
448,Sosnovoborsk,40,RU,1551475800,85,56.12,93.34,24.8,2.24
449,Oistins,20,BB,1551477600,69,13.07,-59.53,78.8,21.92
450,Campina Verde,8,BR,1551479593,93,-19.54,-49.49,71.98,2.91
451,Saskylakh,8,RU,1551479593,43,71.97,114.09,-27.97,3.36
452,Tanda,92,IN,1551479596,80,31.67,75.63,49.21,9.06
453,Coro,8,VE,1551479596,72,11.41,-69.67,78.73,13.76
454,Banda Aceh,12,ID,1551479597,98,5.56,95.32,70.99,1.79
455,Lichinga,75,MZ,1551477600,94,-13.3,35.25,68.0,2.24
456,Mayo,5,CA,1551477600,61,63.59,-135.9,12.2,3.58
457,Lagoa,0,PT,1551479556,82,37.14,-8.45,57.2,4.7
458,Yermish,64,RU,1551479601,88,54.77,42.27,23.29,11.74
459,Garissa,0,KE,1551479605,61,-0.46,39.64,77.29,9.73
460,Ternate,20,PH,1551479583,73,14.29,120.72,78.01,4.7
461,Saiha,0,IN,1551479489,92,22.49,92.98,49.03,1.79
462,Vysokogornyy,0,RU,1551479607,63,50.1,139.13,11.68,3.69
463,La Libertad,40,PE,1551477600,82,-16.38,-71.56,59.0,12.75
464,Qeshm,0,IR,1551477600,68,26.96,56.27,66.2,13.87
465,Yakeshi,24,CN,1551479445,68,49.28,120.73,11.81,4.81
466,Roura,100,GF,1551477600,74,4.73,-52.33,78.8,6.93
467,Sao Jose da Coroa Grande,32,BR,1551479665,90,-8.9,-35.15,77.83,4.81
468,Aktau,0,KZ,1551477600,100,43.65,51.16,33.8,9.17
469,Antsohihy,12,MG,1551479679,90,-14.88,47.99,74.36,8.61
470,Touros,40,BR,1551477600,83,-5.2,-35.46,80.6,5.82
471,Soe,0,EE,1551479475,73,57.91,26.05,19.4,6.93
472,Pastavy,24,BY,1551479685,74,55.11,26.84,15.19,9.4
473,Lure,90,FR,1551479519,93,47.69,6.5,44.01,3.36
474,Kununurra,0,AU,1551477600,74,-15.77,128.74,80.6,5.82
475,Half Moon Bay,75,US,1551479663,66,37.46,-122.43,59.0,4.7
476,Samarai,80,PG,1551479691,100,-10.62,150.67,81.65,4.92
477,Laguna,5,MX,1551476400,25,27.52,-110.01,86.0,6.93
478,Loa Janan,68,ID,1551479642,61,-0.58,117.09,81.25,3.02
479,Guantanamo,75,BO,1551477600,78,-16.14,-62.05,78.8,3.91
480,Nha Trang,20,VN,1551477600,83,12.24,109.19,71.6,2.24
481,Healdsburg,20,US,1551479701,62,38.61,-122.87,57.0,3.47
482,Yerofey Pavlovich,20,RU,1551479706,71,53.97,121.97,9.16,1.34
483,Birjand,75,IR,1551477600,86,32.86,59.22,39.2,9.17
484,Frumusica,0,RO,1551479127,64,47.53,26.9,36.0,12.75
485,Xichang,0,CN,1551479671,22,27.88,102.25,37.96,1.9
486,Saint-Louis,75,CH,1551479705,87,47.59,7.56,48.2,12.75
487,Puerto del Rosario,75,ES,1551477600,72,28.5,-13.86,64.4,14.99
488,Namibe,68,AO,1551479713,100,-15.19,12.15,76.66,8.72
489,Shiyan,92,CN,1551479713,98,32.65,110.78,38.0,2.35
490,Monte Alegre,76,BR,1551479714,94,-2.0,-54.07,74.81,4.92
491,Hrubieszow,32,PL,1551479490,62,50.8,23.89,24.86,8.84
492,Matagami,44,NG,1551479714,87,9.67,8.4,66.76,2.57
493,Paka,20,HR,1551477600,76,45.29,18.06,48.2,9.17
494,Monte Azul,36,BR,1551479433,95,-15.15,-42.87,64.33,2.68
495,Cuamba,32,MZ,1551479717,80,-14.8,36.54,69.91,0.89
496,Am Timan,32,TD,1551479717,45,11.04,20.28,75.76,3.91
497,Loikaw,0,MM,1551479717,92,19.67,97.21,54.11,2.13
498,Bam,0,IR,1551479718,24,29.11,58.36,52.0,9.51
499,Ubala,0,YE,1551479719,83,13.89,44.44,49.21,2.68
500,Dole,90,FR,1551479656,93,47.09,5.49,48.2,3.36
501,Kuching,75,MY,1551477600,100,1.56,110.34,75.2,1.12
502,Nizhniy Kuranakh,64,RU,1551479722,87,58.84,125.49,14.65,2.68
503,Wanning,75,AT,1551479647,87,48.64,13.53,46.0,13.87
504,Sur,24,OM,1551479723,96,22.57,59.53,72.61,7.16
505,Bereznik,48,RU,1551479726,78,62.86,42.71,10.51,2.68
506,Dwarka,75,IN,1551477600,67,28.58,77.04,60.8,2.91
507,Petropavlovsk-Kamchatskiy,68,RU,1551475800,65,53.05,158.65,3.2,11.18
508,Winchester,75,GB,1551479506,81,51.06,-1.31,48.0,4.7
509,Gejiu,56,CN,1551479728,70,23.36,103.16,56.36,3.58
510,Mnogovershinnyy,0,RU,1551479733,72,53.94,139.92,5.74,2.57
511,Chervone,68,UA,1551479733,80,47.06,32.37,31.57,7.49
512,Morondava,64,MG,1551479734,89,-20.3,44.28,82.91,6.15
513,Leningradskiy,0,RU,1551479736,77,69.38,178.42,18.83,20.02
514,Bebington,40,GB,1551479435,81,53.35,-3.01,48.0,10.29
515,Mehamn,0,NO,1551477000,85,71.03,27.85,17.6,13.87
516,Hambantota,20,LK,1551474600,100,6.12,81.12,75.2,8.05
517,Prieska,0,ZA,1551479739,47,-29.67,22.74,59.02,4.92
518,Evensk,64,RU,1551479739,100,61.92,159.24,-1.02,5.82
519,Ginda,88,IN,1551479739,69,30.69,78.49,35.44,2.35
520,Lavrentiya,0,RU,1551479742,95,65.58,-170.99,22.16,6.15
521,Rottweil,80,DE,1551479736,87,48.17,8.63,46.0,5.26
522,Sao Felix do Xingu,88,BR,1551479742,94,-6.64,-51.99,74.05,2.91
523,Hasaki,20,JP,1551477664,64,35.73,140.83,39.2,4.7
524,Kaliua,48,TZ,1551479743,94,-5.06,31.79,63.34,2.35
525,Virginia Beach,90,US,1551479598,87,36.85,-75.98,44.01,11.41
526,Rapar,32,IN,1551479743,47,23.57,70.65,59.29,6.93
527,Zhezkazgan,88,KZ,1551479745,77,47.8,67.71,24.82,7.94
528,Kawakawa,8,NZ,1551479585,64,-35.38,174.07,73.99,5.99
529,Flin Flon,90,CA,1551477600,58,54.77,-101.88,-5.81,12.75
530,Honiara,0,SB,1551479746,68,-9.43,159.96,85.48,0.89
531,Aberdeen,90,US,1551479708,78,45.47,-98.49,17.01,17.22
532,Mbanza-Ngungu,88,CD,1551479747,98,-5.25,14.87,68.83,3.36
533,Jennings,40,US,1551479462,72,30.22,-92.66,73.4,2.68
534,Atar,0,MR,1551479600,19,20.52,-13.05,60.73,9.62
535,Rorvik,92,NO,1551479702,94,64.86,11.24,37.0,5.01
536,Shakawe,56,BW,1551479751,75,-18.36,21.84,70.09,3.02
537,Gravdal,48,NO,1551479709,86,59.79,5.78,36.0,9.17
538,Thinadhoo,76,MV,1551479753,100,0.53,72.93,82.55,8.95
539,Ust-Kuyga,64,RU,1551479753,81,70.0,135.55,-19.2,4.14
540,Pacific Grove,75,US,1551479728,66,36.62,-121.92,60.01,2.35
541,Kathmandu,20,NP,1551477000,93,27.71,85.32,42.8,2.24
542,Arlit,0,NE,1551479757,48,18.74,7.39,53.17,9.73
543,Rio Gallegos,40,AR,1551477600,63,-51.62,-69.22,62.6,8.05
544,Guymon,1,US,1551478500,27,36.68,-101.48,62.6,20.8
545,Ust-Nera,8,RU,1551479759,52,64.57,143.24,-33.6,2.13
546,Galle,90,US,1551479759,81,29.74,-97.91,60.01,4.7
547,Cherepovets,64,RU,1551479765,83,59.13,37.92,12.31,5.93
548,Vina del Mar,0,CL,1551477600,63,-33.02,-71.55,64.4,8.05
549,Uvira,56,CD,1551479766,100,-3.41,29.14,64.1,3.69
550,Ocara,32,BR,1551479766,86,-4.49,-38.6,76.75,4.81
551,Koumac,68,NC,1551479657,77,-20.56,164.28,81.34,11.86
552,Ahipara,0,NZ,1551478205,90,-35.17,173.16,73.99,9.62
553,Takoradi,12,GH,1551479767,100,4.89,-1.75,80.21,6.49
554,Novo Cruzeiro,64,BR,1551479767,77,-17.47,-41.88,73.51,4.59
555,Nangomba,12,TZ,1551479767,95,-10.9,38.52,71.17,2.91
556,Omboue,76,GA,1551479768,100,-1.57,9.26,80.3,3.02
557,Savannah Bight,68,HN,1551479768,96,16.45,-85.85,79.58,18.79
